,City,Lat,Lng,Max Temp,Humidity,Clouds,Wind Speed,Country,Date
0,East London,-33.0153,27.9116,55.31,56,20,8.97,ZA,1630272832
1,Castro,-24.7911,-50.0119,55.22,95,87,6.31,BR,1630272806
2,Hong Kong,22.2855,114.1577,83.32,88,34,9.35,HK,1630272555
3,Mataura,-46.1927,168.8643,39.47,67,13,5.82,NZ,1630272784
4,Bosanska Krupa,44.8825,16.1514,49.6,94,47,3.44,BA,1630273016
5,Atuona,-9.8,-139.0333,77.07,75,12,19.71,PF,1630272819
6,Ponnāni,10.767,75.9252,70.92,91,100,8.37,IN,1630273017
7,Rocha,-34.4833,-54.3333,54.72,96,11,5.75,UY,1630273017
8,San Patricio,28.017,-97.5169,94.98,53,98,8.7,US,1630272826
9,Nuuk,64.1835,-51.7216,43.41,87,75,4.61,GL,1630273018
10,Port Alfred,-33.5906,26.891,56.37,56,75,10.94,ZA,1630272811
11,Yambio,4.5721,28.3955,67.96,89,100,3.27,SS,1630273018
12,Rikitea,-23.1203,-134.9692,73.76,70,1,16.42,PF,1630272788
13,Inírida,3.8653,-67.9239,72.14,98,100,5.06,CO,1630273018
14,Khatanga,71.9667,102.5,34.5,87,100,6.69,RU,1630272787
15,Barcelos,41.5388,-8.6151,69.28,93,100,1.66,PT,1630272949
16,Tuktoyaktuk,69.4541,-133.0374,50.0,76,75,3.44,CA,1630272833
17,Mandera,3.9366,41.867,77.54,51,69,20.42,KE,1630273019
18,Tiksi,71.6872,128.8694,37.53,98,100,12.97,RU,1630272800
19,Avarua,-21.2078,-159.775,75.25,60,99,16.11,CK,1630272813
20,Ilo,-17.6394,-71.3375,62.6,77,81,6.42,PE,1630273019
21,Międzychód,52.5988,15.897,54.66,94,91,2.93,PL,1630273020
22,Moose Factory,51.2585,-80.6094,69.78,94,90,6.91,CA,1630272860
23,Saint Paul Harbor,57.79,-152.4072,65.71,42,1,9.22,US,1630272789
24,Aklavik,68.2191,-135.0107,57.92,46,90,4.18,CA,1630272915
25,Albany,42.6001,-73.9662,79.54,79,76,7.72,US,1630272784
26,Puerto Ayora,-0.7393,-90.3518,70.56,89,58,5.01,EC,1630272832
27,Punta Arenas,-53.15,-70.9167,44.71,57,75,16.11,CL,1630272589
28,Busselton,-33.65,115.3333,56.05,73,100,18.81,AU,1630272977
29,Arraial do Cabo,-22.9661,-42.0278,71.56,83,40,8.05,BR,1630272833
30,Dhidhdhoo,6.8833,73.1,82.08,78,100,18.19,MV,1630272775
31,Coquimbo,-29.9533,-71.3436,56.93,76,75,9.22,CL,1630272814
32,Bluff,-46.6,168.3333,39.79,62,15,15.1,NZ,1630272796
33,Winnemucca,40.973,-117.7357,91.45,9,1,4.61,US,1630273021
34,Port Hardy,50.6996,-127.4199,62.78,59,40,11.5,CA,1630272632
35,Indramayu,-6.3264,108.32,77.9,77,100,8.48,ID,1630273021
36,Lorengau,-2.0226,147.2712,83.59,75,39,9.22,PG,1630272846
37,Dunedin,-45.8742,170.5036,42.8,70,64,7.14,NZ,1630272745
38,Hobart,-42.8794,147.3294,45.1,93,0,1.99,AU,1630272787
39,Ponta do Sol,32.6667,-17.1,75.83,79,46,6.62,PT,1630272877
40,North Myrtle Beach,33.816,-78.68,91.69,68,1,1.01,US,1630273022
41,Mayo,38.8876,-76.5119,84.74,77,1,1.01,US,1630272856
42,Mar del Plata,-38.0023,-57.5575,59.02,72,0,6.91,AR,1630272785
43,Bereda,43.2686,-7.5406,62.35,97,43,2.3,ES,1630272840
44,Tautira,-17.7333,-149.15,82.42,75,4,15.32,PF,1630273022
45,Saint-Augustin,51.226,-58.6502,62.06,72,100,5.17,CA,1630272797
46,Ushuaia,-54.8,-68.3,38.86,81,75,17.27,AR,1630272795
47,Kānt,27.8,79.8,74.86,95,98,8.41,IN,1630273023
48,Qaanaaq,77.484,-69.3632,34.7,94,100,2.44,GL,1630272836
49,Nabire,-3.3667,135.4833,77.36,87,98,2.37,ID,1630273023
50,Lüderitz,-26.6481,15.1594,55.11,54,0,9.93,NA,1630272835
51,Butaritari,3.0707,172.7902,84.11,67,20,16.51,KI,1630272781
52,Port Elizabeth,-33.918,25.5701,46.69,93,75,3.44,ZA,1630272708
53,Talnakh,69.4865,88.3972,40.23,97,100,11.68,RU,1630272897
54,Sambava,-14.2667,50.1667,69.94,91,4,6.8,MG,1630273024
55,Jamestown,42.097,-79.2353,81.52,82,1,5.99,US,1630272801
56,Machalí,-34.1833,-70.6667,72.68,35,0,10.36,CL,1630273024
57,Vardø,70.3705,31.1107,47.95,81,75,4.59,NO,1630272845
58,Gobabis,-22.45,18.9667,47.75,9,0,10.94,NA,1630273025
59,Tyup,42.7276,78.3648,54.86,46,16,3.2,KG,1630273025
60,Cidreira,-30.1811,-50.2056,61.52,83,0,19.39,BR,1630272877
61,Elko,41.0002,-115.5012,92.73,11,0,5.99,US,1630272995
62,Hofn,64.2539,-15.2082,54.84,77,100,11.56,IS,1630272918
63,Bud,39.447,-86.1758,91.38,66,30,7.49,US,1630273025
64,Ahualulco del Sonido Trece,22.4,-101.1667,66.02,53,100,8.14,MX,1630273026
65,Cherskiy,68.75,161.3,45.97,52,100,8.93,RU,1630272806
66,Bengkulu,-3.8004,102.2655,75.45,87,93,3.62,ID,1630272723
67,Great Falls,47.5002,-111.3008,80.67,23,1,10.36,US,1630272819
68,Yuanping,38.7153,112.7575,58.75,95,59,1.7,CN,1630273026
69,Karratha,-20.7377,116.8463,67.93,48,62,2.68,AU,1630272885
70,Mitsamiouli,-11.3847,43.2844,76.46,71,1,8.7,KM,1630272859
71,‘Ewa Beach,21.3156,-158.0072,85.95,56,1,11.5,US,1630272898
72,Nanortalik,60.1432,-45.2371,43.65,84,2,11.27,GL,1630272800
73,Upernavik,72.7868,-56.1549,37.06,87,99,2.71,GL,1630272803
74,Mahébourg,-20.4081,57.7,71.89,78,75,14.97,MU,1630272808
75,Dikson,73.5069,80.5464,37.99,94,100,21.14,RU,1630272825
76,Arica,-18.475,-70.3042,61.03,72,0,10.36,CL,1630272878
77,Batemans Bay,-35.7167,150.1833,43.92,84,9,4.27,AU,1630272946
78,Mil'kovo,54.7167,158.6167,55.96,93,100,3.53,RU,1630273027
79,Te Anau,-45.4167,167.7167,39.87,88,95,1.39,NZ,1630273028
80,Benalla,-36.55,145.9833,44.35,94,100,3.96,AU,1630273028
81,Hermanus,-34.4187,19.2345,49.89,68,96,11.68,ZA,1630273028
82,Teya,60.3778,92.6267,44.64,97,88,2.08,RU,1630273028
83,Belūr,13.1667,75.8667,65.48,97,100,7.4,IN,1630273029
84,Saskylakh,71.9167,114.0833,35.69,98,100,10.54,RU,1630272798
85,Abhar,36.1468,49.218,66.24,61,0,2.91,IR,1630273029
86,Margate,51.3813,1.3862,61.3,80,100,5.99,GB,1630272918
87,Marquette,46.5333,-87.6335,79.83,46,93,12.91,US,1630272871
88,Los Chiles,11.0333,-84.7167,87.08,61,91,7.72,CR,1630273030
89,Palu,-0.8917,119.8707,74.46,95,100,2.8,ID,1630273030
90,Vaini,-21.2,-175.2,75.36,83,75,9.22,TO,1630272802
91,Khartoum,15.5518,32.5324,87.19,50,33,16.91,SD,1630273030
92,José de Freitas,-4.7564,-42.5756,97.75,23,39,5.57,BR,1630273031
93,Montefiascone,42.5393,12.0362,62.47,55,0,3.94,IT,1630273031
94,Milyutinskaya,48.6279,41.6679,70.0,33,0,12.44,RU,1630273031
95,Okara,30.8081,73.4458,85.55,54,1,7.78,PK,1630272972
96,Sinnamary,5.3833,-52.95,79.86,84,100,12.93,GF,1630273032
97,New Norfolk,-42.7826,147.0587,44.74,89,95,2.95,AU,1630272796
98,Yellowknife,62.456,-114.3525,68.52,64,75,3.44,CA,1630272791
99,Maceió,-9.6658,-35.7353,76.44,88,75,4.61,BR,1630272855
100,Belle Fourche,44.6714,-103.8522,85.05,18,0,12.88,US,1630273032
101,Walvis Bay,-22.9575,14.5053,57.09,54,0,3.44,NA,1630272848
102,Kamaishi,39.2667,141.8833,74.25,70,92,3.78,JP,1630273033
103,Hithadhoo,-0.6,73.0833,81.64,74,83,6.33,MV,1630272804
104,Port Lincoln,-34.7333,135.8667,51.69,91,21,12.73,AU,1630272952
105,Kapaa,22.0752,-159.319,82.72,67,75,5.01,US,1630272785
106,Pisco,-13.7,-76.2167,66.25,68,0,8.05,PE,1630272856
107,Aitape,-3.1374,142.3475,79.79,87,26,7.02,PG,1630273033
108,Paamiut,61.994,-49.6678,44.58,79,57,7.87,GL,1630272938
109,Hobyo,5.3505,48.5268,76.71,78,80,26.02,SO,1630273034
110,Bay Roberts,47.5999,-53.2648,59.5,66,6,19.33,CA,1630273034
111,Carnarvon,-24.8667,113.6333,53.67,76,62,8.05,AU,1630272883
112,Nizhniy Kuranakh,58.8353,125.4869,48.18,76,4,2.93,RU,1630273034
113,Illela,13.7292,5.2975,86.72,49,68,1.28,NG,1630273035
114,Arlit,18.7369,7.3853,99.95,10,7,10.78,NE,1630273035
115,Malbork,54.0359,19.0266,62.26,97,100,3.44,PL,1630273035
116,Zhireken,52.8249,117.3076,49.75,92,0,0.43,RU,1630273036
117,Dingle,10.9995,122.6711,74.52,88,91,2.35,PH,1630272895
118,Kumul,42.8,93.45,77.97,23,73,6.8,CN,1630273036
119,Santa Vitória do Palmar,-33.5189,-53.3681,56.19,94,20,6.89,BR,1630273036
120,Benguela,-12.5763,13.4055,70.86,85,99,3.62,AO,1630273037
121,Khasan,42.4308,130.6434,65.03,69,1,4.7,RU,1630273037
122,Springdale,36.1867,-94.1288,87.62,69,1,8.05,US,1630272902
123,Warrington,53.3925,-2.5802,61.27,77,75,1.01,GB,1630272788
124,Fairbanks,64.8378,-147.7164,51.1,78,75,4.61,US,1630272633
125,São João da Barra,-21.6403,-41.0511,71.69,82,72,11.95,BR,1630272873
126,Ikalamavony,-21.15,46.5833,62.6,87,35,4.43,MG,1630273038
127,Bredasdorp,-34.5322,20.0403,45.72,81,85,5.75,ZA,1630272790
128,Wahpeton,46.2652,-96.6059,81.77,40,1,10.83,US,1630272611
129,Francisco Sá,-16.4758,-43.4883,80.74,47,99,12.03,BR,1630273038
130,General Pico,-35.6566,-63.7568,67.59,36,8,10.04,AR,1630273038
131,Enumclaw,47.2043,-121.9915,80.73,52,68,1.01,US,1630273039
132,Salalah,17.0151,54.0924,78.89,89,75,4.61,OM,1630272743
133,Ribeira Grande,38.5167,-28.7,72.43,87,12,9.4,PT,1630272826
134,Madera,37.1666,-119.8343,109.0,13,0,1.99,US,1630273039
135,Kasli,55.8909,60.7616,45.57,74,1,4.59,RU,1630273039
136,Saint George,37.1041,-113.5841,108.07,13,1,1.01,US,1630272795
137,Kwekwe,-18.9281,29.8149,52.75,79,60,11.21,ZW,1630273040
138,George Town,5.4112,100.3354,76.93,93,20,3.44,MY,1630272651
139,Nizhniy Tsasuchey,50.5167,115.1333,55.31,64,2,4.16,RU,1630273040
140,San Jerónimo,-11.9472,-75.2829,56.86,58,95,6.51,PE,1630272852
141,Lānja,16.85,73.55,74.52,92,100,0.6,IN,1630273041
142,Glenwood Springs,39.5505,-107.3248,90.52,14,1,8.01,US,1630273041
143,Tual,-5.6667,132.75,81.27,82,91,13.91,ID,1630272955
144,Kruisfontein,-34.0033,24.7314,47.97,56,29,5.55,ZA,1630272947
145,Kousséri,12.0769,15.0306,84.16,70,29,3.44,CM,1630273041
146,Granadilla de Abona,28.1188,-16.576,69.89,77,20,14.97,ES,1630273042
147,General Roca,-39.0333,-67.5833,77.4,21,82,7.2,AR,1630273042
148,Namtsy,62.7161,129.6658,37.51,74,55,5.99,RU,1630272939
149,Bam,29.106,58.357,79.14,15,0,15.86,IR,1630273042
150,College,64.8569,-147.8028,49.08,77,75,4.61,US,1630273043
151,Lincoln,40.8,-96.667,79.54,57,1,6.91,US,1630272629
152,Petatlán,17.5167,-101.2667,80.4,85,100,2.95,MX,1630273043
153,Hilo,19.7297,-155.09,82.13,67,20,8.05,US,1630272781
154,Codrington,-38.2667,141.9667,48.0,86,99,14.9,AU,1630272906
155,Pozuelo de Alarcón,40.4329,-3.8134,81.16,45,0,10.36,ES,1630273044
156,Nikolskoye,59.7035,30.7861,58.89,96,78,4.79,RU,1630272868
157,Avera,33.194,-82.5271,91.74,34,19,8.81,US,1630272909
158,Gornozavodsk,58.3758,58.3211,40.8,92,15,1.77,RU,1630272912
159,Sacramento,38.4666,-121.3177,107.49,23,1,1.99,US,1630273044
160,Puerto Gaitán,4.3133,-72.0816,74.53,91,100,13.31,CO,1630273045
161,Tateyama,34.9833,139.8667,80.62,84,0,4.36,JP,1630273045
162,Saint-Philippe,-21.3585,55.7679,71.22,89,63,13.76,RE,1630272784
163,Narsaq,60.9167,-46.05,53.82,67,6,2.46,GL,1630272820
164,Beloha,-25.1667,45.05,65.64,92,0,5.53,MG,1630273046
165,Barrow,71.2906,-156.7887,37.42,75,90,16.11,US,1630272786
166,Mount Isa,-20.7333,139.5,69.22,17,5,9.31,AU,1630272815
167,Montrose,38.4166,-108.2673,80.01,8,1,8.16,US,1630273046
168,Gboko,7.3179,8.9951,74.98,88,86,11.1,NG,1630273047
169,Padang,-0.9492,100.3543,77.4,88,100,3.4,ID,1630272791
170,Luanda,-8.8368,13.2343,71.6,100,0,4.61,AO,1630273047
171,Provideniya,64.3833,-173.3,48.31,93,90,15.66,RU,1630272856
172,Arkhara,49.4212,130.0842,53.1,94,99,1.21,RU,1630273047
173,Salym,60.0625,71.4789,42.75,97,52,4.54,RU,1630273048
174,Camaquã,-30.8511,-51.8122,60.1,86,21,7.81,BR,1630273048
175,Grand Gaube,-20.0064,57.6608,72.0,76,98,5.99,MU,1630273048
176,Thompson,55.7435,-97.8558,73.56,40,40,9.22,CA,1630272634
177,Ahipara,-35.1667,173.1667,59.79,91,39,11.05,NZ,1630272807
178,Ambunti,-4.2365,142.8448,75.63,96,23,0.85,PG,1630273049
179,Chiquilistlán,20.2,-103.8167,75.49,68,97,6.29,MX,1630273049
180,Corowa,-36.0333,146.3833,47.32,94,100,4.68,AU,1630273049
181,Kashgar,39.4547,75.9797,70.81,40,0,8.95,CN,1630273050
182,Jutaí,-5.1833,-68.9,83.73,61,94,1.57,BR,1630273050
183,Sindi,20.8,78.8667,79.68,88,100,7.02,IN,1630273050
184,Beringovskiy,63.05,179.3167,52.5,87,100,6.15,RU,1630272917
185,Vila Franca do Campo,37.7167,-25.4333,72.01,91,46,9.93,PT,1630273051
186,Aleksandrov Gay,50.147,48.5704,62.91,28,7,7.83,RU,1630273051
187,Guerrero Negro,27.9769,-114.0611,81.23,58,0,15.37,MX,1630273051
188,Tagusao,9.1924,117.8141,78.58,83,85,3.38,PH,1630273051
189,Ostrovnoy,68.0531,39.5131,44.67,77,100,5.7,RU,1630272839
190,Kiryat Gat,31.61,34.7642,81.28,79,0,3.71,IL,1630272934
191,Kavieng,-2.5744,150.7967,82.9,76,87,12.01,PG,1630272827
192,Kontagora,10.3999,5.4695,74.16,92,100,3.58,NG,1630273052
193,Gemeente Beverwijk,52.4827,4.6547,62.58,89,33,5.01,NL,1630273030
194,Cabo San Lucas,22.8909,-109.9124,96.1,72,90,11.99,MX,1630273052
195,Iguape,-24.7081,-47.5553,64.56,93,100,10.67,BR,1630273053
196,Najrān,17.4924,44.1277,79.45,11,28,3.6,SA,1630273053
197,Guadalupe y Calvo,26.1,-106.9667,58.28,84,100,3.56,MX,1630273053
198,Rindal,63.0565,9.2124,48.74,94,47,1.68,NO,1630273054
199,Harper,4.375,-7.7169,76.68,84,100,14.18,LR,1630272822
200,Mitrofanovka,49.9708,39.6939,66.81,40,9,9.22,RU,1630273054
201,Cap Malheureux,-19.9842,57.6142,72.09,76,97,5.99,MU,1630273054
202,Bonavista,48.6499,-53.1147,56.12,86,96,32.08,CA,1630273055
203,Omboué,-1.5746,9.2618,74.95,89,100,7.58,GA,1630272940
204,Cape Town,-33.9258,18.4232,50.41,76,0,8.05,ZA,1630272796
205,Polunochnoye,60.8697,60.4153,41.58,91,59,3.69,RU,1630273055
206,Noumea,-22.2763,166.4572,62.58,60,91,7.34,NC,1630273056
207,Lavrentiya,65.5833,-171.0,44.28,97,100,4.14,RU,1630272846
208,Erzin,36.9559,36.2,81.32,82,0,2.57,TR,1630273056
209,Key West,24.5557,-81.7826,89.6,67,1,8.05,US,1630272910
210,Balyaga,51.1507,108.921,48.13,83,38,1.9,RU,1630273056
211,Nikel,69.4128,30.222,44.78,72,100,4.76,RU,1630273057
212,Buraidah,26.326,43.975,91.85,9,8,8.93,SA,1630272931
213,Casablanca,33.5928,-7.6192,70.02,76,0,7.56,MA,1630273057
214,Vao,-22.6667,167.4833,67.71,64,80,8.72,NC,1630273057
215,Damphu,27.0721,90.1096,65.88,93,99,3.67,BT,1630273058
216,Kaitangata,-46.2817,169.8464,43.25,56,46,7.92,NZ,1630272785
217,Kanlagay,5.8757,121.2915,80.46,80,88,4.18,PH,1630273058
218,Manzhouli,49.6,117.4333,53.53,78,0,0.87,CN,1630273059
219,Ōhara,35.25,140.3833,80.55,84,3,1.83,JP,1630273059
220,São Filipe,14.8961,-24.4956,77.5,75,95,2.73,CV,1630272930
221,Ereymentau,51.6199,73.1033,50.86,87,100,9.95,KZ,1630273059
222,Iqaluit,63.7506,-68.5145,42.53,87,20,3.44,CA,1630273060
223,Kahului,20.8947,-156.47,84.22,58,40,18.41,US,1630272766
224,Ambon City,-3.6954,128.1814,75.34,100,40,9.22,ID,1630272781
225,Souillac,-20.5167,57.5167,71.98,78,75,14.97,MU,1630272941
226,Saint Simons,31.1352,-81.3901,89.87,70,1,9.22,US,1630273060
227,Limbang,4.75,115.0,75.51,99,99,2.21,MY,1630273060
228,Havøysund,70.9963,24.6622,50.88,92,100,11.72,NO,1630273061
229,Marsá Maţrūḩ,31.3525,27.2453,80.8,69,20,8.05,EG,1630272882
230,Manuk Mangkaw,4.8,119.85,82.2,74,47,3.24,PH,1630273061
231,Bethel,41.3712,-73.414,75.69,84,90,4.61,US,1630272807
232,Samarai,-10.6167,150.6667,79.93,85,87,14.14,PG,1630272843
233,Faya,18.3851,42.4509,75.31,18,22,2.57,SA,1630273062
234,Lagoa,39.05,-27.9833,71.1,80,4,5.35,PT,1630272869
235,Siguiri,11.6667,-9.5,72.55,97,88,2.13,GN,1630273062
236,Birjand,32.8663,59.2211,63.07,20,0,4.61,IR,1630272959
237,Lebu,-37.6167,-73.65,54.45,93,95,3.38,CL,1630272813
238,Severo-Yeniseyskiy,60.3725,93.0408,41.11,97,83,2.48,RU,1630273063
239,Palana,59.1167,159.9667,54.55,75,8,2.21,RU,1630273063
240,Tasiilaq,65.6145,-37.6368,46.56,69,17,6.64,GL,1630272810
241,Matai,-8.3,31.5167,60.71,37,1,5.21,TZ,1630273063
242,Lánycsók,46.0054,18.6253,59.32,93,100,8.93,HU,1630273064
243,Flin Flon,54.7682,-101.865,69.64,56,20,8.05,CA,1630273064
244,Wlingi,-8.0776,112.3311,71.1,92,88,4.41,ID,1630273064
245,Mnogovershinnyy,53.9353,139.9242,50.49,95,95,4.25,RU,1630273064
246,Tiznit Province,29.5833,-9.5,69.04,66,0,4.54,MA,1630273065
247,Natal,-5.795,-35.2094,79.45,83,75,13.8,BR,1630273065
248,Khovu-Aksy,51.1333,93.6,49.01,73,3,3.62,RU,1630273066
249,Saint-François,46.4154,3.9054,60.19,78,0,3.44,FR,1630273066
250,Flinders,-34.5833,150.8552,52.81,80,13,3.0,AU,1630272908
251,Aksarka,66.5606,67.7975,45.01,83,99,14.67,RU,1630273066
252,Kalmunai,7.4167,81.8167,81.1,63,100,4.32,LK,1630273067
253,High Rock,26.6208,-78.2833,86.02,71,2,12.12,BS,1630273067
254,Auray,47.6703,-2.9918,63.75,78,3,13.69,FR,1630273067
255,Belturbet,54.1,-7.45,59.63,80,100,3.44,IE,1630272989
256,Mossamedes,-15.1961,12.1522,61.68,81,2,4.9,AO,1630273068
257,Montecchio Maggiore,45.5037,11.412,66.15,68,100,3.18,IT,1630273068
258,Naze,28.3667,129.4833,76.96,74,5,3.13,JP,1630273068
259,Pangnirtung,66.1451,-65.7125,42.12,72,48,2.35,CA,1630272794
260,Phimai,15.2232,102.4947,74.43,94,97,4.34,TH,1630273069
261,San Cristobal,7.7669,-72.225,82.58,79,68,4.56,VE,1630272847
262,Maricá,-22.9194,-42.8186,69.75,87,89,6.69,BR,1630273069
263,Cockburn Town,21.4612,-71.1419,81.3,79,19,14.05,TC,1630272889
264,Tessalit,20.1986,1.0114,93.56,24,83,11.95,ML,1630272903
265,Barcarena,-1.5058,-48.6258,86.05,75,96,11.5,BR,1630273070
266,Loudi,27.7344,111.9944,75.81,83,67,1.95,CN,1630273070
267,Muros,42.7762,-9.0603,68.5,90,61,0.31,ES,1630273070
268,São Raimundo Nonato,-9.0153,-42.6994,83.48,36,38,5.41,BR,1630273071
269,Gao,16.6362,1.637,83.41,46,100,14.94,ML,1630272873
270,Puerto Baquerizo Moreno,-0.9,-89.6,69.35,84,44,11.79,EC,1630273071
271,Leninsk,48.7119,45.1994,67.86,27,51,9.48,RU,1630273071
272,Gachsaran,30.3586,50.7981,82.49,26,0,0.0,IR,1630273072
273,Roald,62.5833,6.1333,56.34,82,75,8.05,NO,1630273072
274,Kavaratti,10.5669,72.642,79.92,80,100,16.33,IN,1630272893
275,Tromsø,69.6496,18.957,51.82,87,75,8.05,NO,1630272853
276,Karwar,14.8,74.1333,77.23,87,100,11.07,IN,1630272913
277,Rena,61.1348,11.3641,52.41,76,22,5.93,NO,1630272869
278,Taltal,-25.4,-70.4833,60.73,72,17,4.76,CL,1630272930
279,Zhigalovo,54.8097,105.1578,52.39,86,74,1.79,RU,1630273073
280,Gijang,35.2442,129.2139,76.73,89,29,3.02,KR,1630273073
281,Hasaki,35.7333,140.8333,75.6,82,0,1.07,JP,1630272794
282,Safi,32.2994,-9.2372,69.69,80,0,15.7,MA,1630273074
283,Ligayan,4.6533,119.4706,82.8,72,57,3.8,PH,1630273074
284,Katherine,-14.4667,132.2667,57.52,47,27,6.91,AU,1630273074
285,Belaya Gora,68.5333,146.4167,47.77,91,100,5.01,RU,1630272919
286,Sumter,28.7086,-82.0831,93.2,64,100,4.72,US,1630273075
287,San Jose,37.3394,-121.895,102.27,39,1,6.91,US,1630272632
288,Alaca,40.1683,34.8425,74.39,26,0,2.53,TR,1630273075
289,Baracoa,20.3467,-74.4958,82.53,76,28,4.97,CU,1630273076
290,Troitsko-Pechorsk,62.7084,56.1964,43.95,77,100,6.08,RU,1630273076
291,Gardendale,33.6601,-86.8128,85.73,90,75,8.05,US,1630273077
292,Rawson,-43.3002,-65.1023,55.35,69,100,9.08,AR,1630273077
293,Jasper,37.2001,-94.3502,95.83,74,90,12.66,US,1630273078
294,Nishihara,26.1842,127.7558,80.65,92,20,6.91,JP,1630272867
295,Padre Bernardo,-15.35,-48.5,81.23,31,40,7.16,BR,1630273078
296,Volos,39.3667,22.9458,83.16,53,0,6.44,GR,1630273078
297,Pargas,60.3067,22.301,58.14,81,41,7.99,FI,1630273079
298,Ancud,-41.8697,-73.8203,55.42,86,100,12.46,CL,1630273079
299,Puerto Madryn,-42.7692,-65.0385,62.19,59,93,2.42,AR,1630272906
300,Teshie,5.5836,-0.1072,79.36,89,40,13.8,GH,1630273079
301,Bandarbeyla,9.4942,50.8122,75.29,84,79,30.82,SO,1630273080
302,Kulhudhuffushi,6.6221,73.07,82.26,76,100,18.72,MV,1630273080
303,Taksimo,56.3444,114.8794,53.55,84,63,0.69,RU,1630273081
304,Geraldton,-28.7667,114.6,48.61,93,75,8.05,AU,1630273081
305,Vokhtoga,58.8147,41.0461,52.9,69,100,4.59,RU,1630273082
306,Chokurdakh,70.6333,147.9167,46.29,86,100,7.2,RU,1630272790
307,Duki,30.1541,68.5728,78.46,47,4,5.5,PK,1630273083
308,Mafra,-26.1114,-49.8053,59.95,90,98,3.51,BR,1630273083
309,Pingliang,35.5392,106.6861,56.84,93,100,3.98,CN,1630273083
310,Hambantota,6.1241,81.1185,77.34,100,100,3.44,LK,1630272810
311,Severo-Kuril'sk,50.6789,156.125,54.72,95,100,5.1,RU,1630272885
312,Shingū,33.7333,135.9833,76.91,73,0,3.47,JP,1630273084
313,Kyzyl-Suu,42.3414,78.0056,56.57,43,19,4.72,KG,1630273084
314,Mondlo,-27.983,30.7177,41.56,78,1,5.26,ZA,1630273085
315,Buin,-33.7333,-70.75,77.32,60,0,5.28,CL,1630273085
316,Doha,25.2867,51.5333,93.51,71,0,3.44,QA,1630272811
317,Umluj,25.0213,37.2685,88.36,59,14,5.23,SA,1630273086
318,Udachny,66.4167,112.4,34.5,87,85,9.64,RU,1630272833
319,Chui,-33.6971,-53.4616,55.6,94,18,7.0,UY,1630272834
320,Nizhnevartovsk,60.9344,76.5531,48.22,93,90,4.47,RU,1630273086
321,St. George's,12.0564,-61.7485,85.68,79,20,12.66,GD,1630272852
322,Tezu,27.9167,96.1667,74.35,86,100,2.04,IN,1630272847
323,Maniitsoq,65.4167,-52.9,40.03,92,100,6.15,GL,1630273087
324,Praia,14.9215,-23.5087,81.14,74,0,5.75,CV,1630272619
325,Turukhansk,65.8167,87.9833,42.57,93,100,8.46,RU,1630273087
326,Galesong,-5.3166,119.3661,75.22,80,95,5.23,ID,1630273088
327,Marzuq,14.4,46.4667,83.1,51,79,6.51,YE,1630272901
328,Hervey Bay,-25.2986,152.8535,59.11,81,0,7.23,AU,1630272850
329,Tres Arroyos,-38.3739,-60.2798,60.58,54,40,9.22,AR,1630273088
330,Tallahassee,30.4383,-84.2807,85.84,85,75,4.61,US,1630273089
331,Ituiutaba,-18.9689,-49.465,79.88,39,59,13.91,BR,1630273089
332,The Pas,53.8251,-101.2541,69.82,52,1,6.26,CA,1630272836
333,Kamenka,51.3223,42.7678,62.02,42,0,7.81,RU,1630273089
334,Miles City,46.4083,-105.8406,86.5,22,1,8.05,US,1630273090
335,Shubarshi,48.5872,57.1869,57.24,38,0,10.13,KZ,1630272859
336,Zhigansk,66.7697,123.3711,43.29,72,99,8.23,RU,1630273090
337,Ust-Nera,64.5667,143.2,50.94,63,100,6.11,RU,1630272909
338,Byron Bay,-28.65,153.6167,61.18,41,0,5.1,AU,1630273090
339,Vanimo,-2.6741,141.3028,78.44,90,37,6.06,PG,1630273091
340,Ilulissat,69.2167,-51.1,39.22,81,75,5.75,GL,1630272799
341,La Ronge,55.1001,-105.2842,73.65,49,40,5.75,CA,1630273091
342,Sibolga,1.7427,98.7792,75.99,88,99,3.24,ID,1630273092
343,Adrar,20.5022,-10.0711,98.06,18,36,16.84,MR,1630273092
344,Piopio,-38.4667,175.0167,56.93,70,52,5.35,NZ,1630273092
345,Morgan City,29.6994,-91.2068,77.02,94,90,28.77,US,1630273093
346,Zile,40.3031,35.8864,69.12,55,0,1.59,TR,1630273093
347,Bambous Virieux,-20.3428,57.7575,71.85,78,75,14.97,MU,1630272795
348,Sidvokodvo,-26.6282,31.4202,50.18,71,0,2.57,SZ,1630273094
349,Baijiantan,45.6333,85.1833,77.54,32,28,5.46,CN,1630273094
350,Wanning,18.8003,110.3967,78.89,90,100,2.86,CN,1630272814
351,Neuquén,-38.9516,-68.0591,76.89,33,0,2.3,AR,1630273094
352,The Valley,18.217,-63.0578,86.14,70,20,8.05,AI,1630273095
353,Lufilufi,-13.8745,-171.5986,80.19,80,31,23.31,WS,1630273095
354,Ambilobe,-13.2,49.05,66.6,94,4,2.06,MG,1630273095
355,Gayéri,12.6497,0.4931,77.45,82,48,7.27,BF,1630273096
356,Guasdualito,7.2424,-70.7324,79.0,91,64,2.91,VE,1630273096
357,Lanzhou,36.0564,103.7922,67.28,53,100,6.89,CN,1630273096
358,Yulara,-25.2406,130.9889,49.84,29,57,3.44,AU,1630272859
359,Tskaltubo,42.3254,42.5979,81.54,47,0,16.11,GE,1630273097
360,Dicabisagan,17.0818,122.4157,78.01,87,91,3.65,PH,1630273097
361,Cambridge,43.3601,-80.3127,90.97,63,75,4.0,CA,1630272905
362,Sandy Bay,-42.913,147.3532,45.14,93,0,1.99,AU,1630273097
363,Pincher Creek,49.4833,-113.952,76.98,31,1,13.8,CA,1630273098
364,Río Gallegos,-51.6226,-69.2181,46.45,66,40,9.22,AR,1630273098
365,Smiths Falls,44.9001,-76.0161,81.93,79,72,11.41,CA,1630273098
366,Chirongui,-12.9319,45.1483,73.33,69,55,7.83,YT,1630273099
367,Meadow Lake,34.8014,-106.5436,91.13,63,80,17.98,US,1630273099
368,Biu,10.6129,12.1946,70.2,87,52,2.21,NG,1630273100
369,Le Mars,42.7942,-96.1656,80.11,35,17,6.38,US,1630273100
370,Brigantine,39.4101,-74.3646,82.02,87,40,11.5,US,1630272857
371,Yerbogachën,61.2767,108.0108,48.54,88,100,5.41,RU,1630272840
372,Lompoc,34.6391,-120.4579,96.01,68,1,14.97,US,1630272542
373,Bathsheba,13.2167,-59.5167,84.81,74,40,9.22,BB,1630273101
374,Yacuiba,-22.038,-63.6797,73.22,41,0,4.7,BO,1630273101
375,Saint Augustine,29.8947,-81.3145,91.26,80,40,13.8,US,1630272903
376,Tsimmerbude,54.675,20.1347,57.25,96,100,5.41,RU,1630273101
377,Longyearbyen,78.2186,15.6401,44.44,87,90,8.05,SJ,1630272932
378,Muisne,0.6,-80.0333,75.07,84,100,13.53,EC,1630273102
379,Gambiran,-6.7988,111.4951,75.07,78,100,6.04,ID,1630273102
380,Saint-Pierre,-21.3393,55.4781,71.29,88,0,3.44,RE,1630272823
381,Tilichiki,60.4667,166.1,53.55,91,100,1.25,RU,1630272866
382,Mosquera,4.7059,-74.2302,62.69,59,75,9.22,CO,1630273104
383,Miranda de Ebro,42.6865,-2.947,64.83,78,100,3.91,ES,1630273104
384,Mahon,39.8885,4.2658,70.36,64,0,4.61,ES,1630273105
385,Pacific Grove,36.6177,-121.9166,101.61,77,1,7.0,US,1630272621
386,Malé,4.1748,73.5089,84.15,79,75,13.8,MV,1630273105
387,Inhambane,-23.865,35.3833,62.6,70,58,9.19,MZ,1630272863
388,Banda Aceh,5.5577,95.3222,78.01,81,100,11.34,ID,1630273106
389,Luganville,-15.5333,167.1667,79.07,71,67,14.23,VU,1630272955
390,Berbera,10.4396,45.0143,92.3,44,90,13.42,SO,1630273106
391,Tuatapere,-46.1333,167.6833,39.81,77,37,5.66,NZ,1630272809
392,Mazagão,-0.115,-51.2894,87.85,74,99,6.55,BR,1630273106
393,Northam,51.0333,-4.2167,61.3,80,0,6.29,GB,1630272822
394,Ixtapa,20.7,-105.2,76.23,88,90,4.61,MX,1630272883
395,Husavik,66.0449,-17.3389,57.11,70,92,10.65,IS,1630272893
396,Villa Unión,23.2,-106.2333,78.91,100,90,19.57,MX,1630273107
397,Faanui,-16.4833,-151.75,79.59,73,8,16.4,PF,1630272816
398,Berlevåg,70.8578,29.0864,48.0,93,0,4.61,NO,1630272883
399,Noyabrsk,63.1994,75.4507,44.96,94,100,9.62,RU,1630273107
400,Esim,4.8699,-2.2405,76.57,88,88,10.98,GH,1630273108
401,Sobolevo,54.4299,31.8996,59.32,80,100,4.92,RU,1630273108
402,Russell,32.3502,-85.1999,83.48,84,40,0.0,US,1630273108
403,Clyde River,70.4692,-68.5914,39.29,74,68,12.5,CA,1630272831
404,Páez,5.1011,-73.0512,66.6,97,82,2.86,CO,1630273109
405,Mandalgovi,45.7625,106.2708,55.54,47,34,8.03,MN,1630272872
406,Saint-Joseph,-21.3667,55.6167,70.21,87,55,10.54,RE,1630272853
407,Esperance,-33.8667,121.9,51.64,83,57,18.97,AU,1630272797
408,Isangel,-19.55,169.2667,75.31,73,40,4.61,VU,1630272802
409,Mazatlán,23.2167,-106.4167,78.91,97,90,5.01,MX,1630273109
410,Sistranda,63.7256,8.834,53.56,87,52,4.36,NO,1630273110
411,Khani,41.9563,42.9566,74.77,52,27,6.15,GE,1630273110
412,Prado,-17.3411,-39.2208,71.83,80,35,9.19,BR,1630273110
413,Kathmandu,27.7167,85.3167,68.22,100,75,0.0,NP,1630272866
414,Piterka,50.6803,47.4454,60.08,32,9,7.31,RU,1630273111
415,Lampazos de Naranjo,27.0167,-100.5167,96.4,28,100,14.2,MX,1630273111
416,Denpasar,-8.65,115.2167,78.46,89,63,8.05,ID,1630273053
417,Eura,61.1333,22.1333,53.38,85,16,4.18,FI,1630273111
418,Leningradskiy,69.3833,178.4167,34.5,87,100,6.04,RU,1630272792
419,Kazlų Rūda,54.7667,23.5,58.98,92,100,3.38,LT,1630273112
420,Savannah Bight,16.45,-85.85,91.45,83,78,27.67,HN,1630272955
421,Chernyshevskiy,63.0128,112.4714,41.05,96,83,4.23,RU,1630272816
422,Kirovo-Chepetsk,58.5539,50.0399,45.21,78,23,4.21,RU,1630273113
423,Norton Shores,43.1689,-86.2639,84.96,75,75,5.01,US,1630272912
424,Mount Gambier,-37.8333,140.7667,48.11,87,88,14.97,AU,1630272810
425,Torbay,47.6666,-52.7314,58.75,73,20,25.32,CA,1630272908
426,Ridgecrest,35.6225,-117.6709,108.64,10,1,4.0,US,1630273113
427,Haines Junction,60.7522,-137.5108,57.15,58,100,10.36,CA,1630273113
428,Plymouth,41.8334,-70.8328,73.81,79,90,4.61,US,1630272965
429,San Vicente de Cañete,-13.0751,-76.3835,64.47,78,49,8.28,PE,1630273114
430,Quatre Cocos,-20.2078,57.7625,71.71,78,88,15.03,MU,1630272837
431,Resistencia,-27.4606,-58.9839,82.38,44,0,9.22,AR,1630272994
432,Kisangani,0.5167,25.2,69.66,97,71,2.1,CD,1630273114
433,Constitución,-35.3333,-72.4167,55.58,91,26,8.81,CL,1630272824
434,Pevek,69.7008,170.3133,34.63,77,51,10.33,RU,1630272844
435,Malatya Province,38.5,38.0,68.05,35,0,6.91,TR,1630273115
436,Qaqortoq,60.7167,-46.0333,54.1,81,5,3.96,GL,1630272939
437,Traverse City,44.7631,-85.6206,84.27,54,75,18.41,US,1630273115
438,Olafsvik,64.8945,-23.7142,51.42,92,100,11.88,IS,1630272788
439,Ulaangom,49.9811,92.0667,55.51,67,7,2.15,MN,1630273116
440,Pilcaya,18.7333,-99.6833,80.62,83,100,4.56,MX,1630273116
441,Broome,42.2506,-75.833,82.06,84,90,1.01,US,1630272821
442,Weihe,32.9952,105.3247,61.86,99,97,3.53,CN,1630273116
443,Ola,59.5833,151.2833,57.24,69,83,3.49,RU,1630273117
444,Ganzhou,28.8184,115.4327,77.85,88,77,1.83,CN,1630273117
445,Pathein,16.7833,94.7333,75.18,96,92,4.21,MM,1630273117
446,Westport,41.1415,-73.3579,77.38,85,90,1.99,US,1630272831
447,Duekoué,6.7472,-7.3496,71.56,99,100,2.77,CI,1630273118
448,Paso de Carrasco,-34.8603,-56.0522,64.85,81,0,4.61,UY,1630273118
449,Mayumba,-3.432,10.6554,74.01,90,100,8.01,GA,1630272936
450,Hamilton,39.1834,-84.5333,93.36,59,40,1.01,US,1630272353
451,Hässleholm,56.1591,13.7664,61.45,94,100,7.54,SE,1630273119
452,Ayan,56.45,138.1667,53.19,60,32,9.37,RU,1630273119
453,Saint Lawrence,36.0553,14.204,77.86,75,0,3.0,MT,1630273119
454,Batagay-Alyta,67.8006,130.4114,43.9,77,46,3.67,RU,1630272845
455,Ayagoz,47.9714,80.4392,63.84,48,74,5.73,KZ,1630273120
456,Pedro Juan Caballero,-22.5472,-55.7333,76.96,57,75,6.91,PY,1630273120
457,Goundam,16.4145,-3.6708,85.66,45,100,10.63,ML,1630273120
458,Alta Floresta,-9.8756,-56.0861,89.19,21,29,4.41,BR,1630273121
459,Maragogi,-9.0122,-35.2225,74.53,88,19,8.57,BR,1630272928
460,Norman Wells,65.282,-126.8329,55.44,82,90,18.41,CA,1630272882
461,Shache,38.4167,77.2406,68.94,45,2,8.25,CN,1630272944
462,Shirokiy,49.758,129.523,50.59,93,100,7.05,RU,1630273121
463,Aasiaat,68.7098,-52.8699,36.79,89,100,9.13,GL,1630273122
464,Rosario,-32.9468,-60.6393,75.11,33,0,12.66,AR,1630273020
465,Rosa Zarate,0.3333,-79.4667,77.29,83,99,5.35,EC,1630273122
466,Borovskoy,53.8,64.15,46.81,59,5,4.97,KZ,1630273122
467,Aksu,41.1231,80.2644,67.35,48,6,3.09,CN,1630273123
468,Koygorodok,60.445,50.9968,43.86,78,84,4.59,RU,1630273123
469,Bakel,14.905,-12.4568,71.13,92,96,13.0,SN,1630273124
470,Vostok,46.4856,135.8833,55.33,95,77,2.08,RU,1630272863
471,Davidson,36.1501,-86.7833,92.39,53,75,7.0,US,1630273124
472,Bougouni,11.417,-7.479,73.47,92,78,1.14,ML,1630273124
473,Volgorechensk,57.4393,41.1555,55.09,55,100,6.85,RU,1630273125
474,Kutum,14.2,24.6667,77.2,55,99,12.68,SD,1630272871
475,Bukama,-9.2,25.85,78.15,26,19,2.13,CD,1630273125
476,Seoni Mālwa,22.45,77.4667,74.79,97,100,3.87,IN,1630273126
477,Krasnyy Chikoy,50.3643,108.7512,48.58,85,60,3.18,RU,1630273126
478,Ozernovskiy,51.5,156.5167,54.99,99,100,3.6,RU,1630273126
479,Hīt,33.6416,42.8251,93.63,16,0,14.54,IQ,1630273127
480,Puerto Carreño,6.189,-67.4859,82.0,73,100,7.94,CO,1630273127
481,Verkhotur'ye,58.8627,60.8054,44.49,78,13,4.83,RU,1630273127
482,Srandakan,-7.9386,110.2506,75.06,91,97,6.67,ID,1630273128
483,Khāsh,28.2211,61.2158,73.02,19,0,1.14,IR,1630273128
484,Cândido de Abreu,-24.5669,-51.3333,64.18,79,94,4.18,BR,1630273128
485,Opunake,-39.4556,173.8583,54.34,79,99,23.04,NZ,1630273129
486,Baykit,61.67,96.37,40.55,92,80,2.1,RU,1630272854
487,Mehamn,71.0357,27.8492,40.91,79,100,7.09,NO,1630272870
488,Edissiya,44.0511,44.5408,73.38,72,0,9.84,RU,1630273129
489,La Santisima Trinidad,-14.8333,-64.9,87.78,58,20,5.75,BO,1630273129
490,Concarneau,47.875,-3.9225,59.79,79,1,13.33,FR,1630273130
491,Sawākin,19.1059,37.3321,88.61,68,21,4.32,SD,1630273130
492,Caravelas,-17.7125,-39.2481,72.66,77,19,8.81,BR,1630273130
493,Cap-aux-Meules,47.3821,-61.8597,66.25,68,75,8.05,CA,1630273131
494,Laurel,39.0993,-76.8483,84.02,74,90,1.99,US,1630272910
495,Lucea,18.451,-78.1736,87.85,74,86,10.8,JM,1630273131
496,Victor Harbor,-35.5667,138.6167,54.0,86,78,12.17,AU,1630273131
497,Chapais,49.7834,-74.8492,67.78,93,98,7.45,CA,1630273132
498,Airai,-8.9266,125.4092,57.74,47,28,3.24,TL,1630272804
499,Finschhafen,-6.6024,147.8681,81.27,75,59,10.49,PG,1630273132
500,Ploemeur,47.7333,-3.4333,63.82,78,0,10.36,FR,1630273132
501,Havelock,34.8791,-76.9013,93.97,77,20,8.05,US,1630273133
502,Apache Junction,33.4151,-111.5496,107.19,21,40,7.0,US,1630272706
503,São Mateus,-18.7161,-39.8589,70.7,80,6,8.7,BR,1630273133
504,Çumra,37.5732,32.7745,71.74,46,0,7.14,TR,1630273133
505,Laas,46.6166,10.7002,58.08,97,100,4.14,IT,1630272820
506,Puerto Ayacucho,5.6639,-67.6236,78.96,85,97,5.64,VE,1630273134
507,Port-Gentil,-0.7193,8.7815,76.96,83,90,9.22,GA,1630273134
508,Clocolan,-28.9137,27.5656,40.19,25,16,3.94,ZA,1630273135
509,Klaksvík,62.2266,-6.589,52.72,82,100,5.1,FO,1630272827
510,Andros Town,24.7,-77.7667,85.96,69,1,12.01,BS,1630273135
511,Vaitape,-16.5167,-151.75,79.59,73,8,16.33,PF,1630273135
512,Port Moresby,-9.4431,147.1797,76.42,94,20,3.44,PG,1630273136
513,Bilma,18.6853,12.9164,95.13,20,54,0.58,NE,1630272904
514,Maple Creek,49.9168,-109.4848,81.09,21,0,4.61,CA,1630273136
515,Westerly,41.3776,-71.8273,75.06,84,90,4.61,US,1630273136
516,Darnah,32.767,22.6367,80.46,64,0,11.12,LY,1630273137
517,Port Augusta,-32.5,137.7667,48.34,60,100,6.89,AU,1630273137
518,Sorong,-0.8833,131.25,77.83,86,100,5.39,ID,1630272927
519,Kungurtug,50.5994,97.5228,43.79,87,7,1.45,RU,1630273138
520,Safaga,26.7292,33.9365,93.15,32,0,19.89,EG,1630273138
521,Ahome,25.9167,-109.1833,99.14,53,98,8.01,MX,1630273138
522,Bocanda,7.0626,-4.4995,73.47,98,100,6.44,CI,1630273138
523,Araouane,18.9048,-3.5265,96.46,31,1,16.17,ML,1630273139
524,Imeni Poliny Osipenko,52.4201,136.4853,51.8,92,100,6.02,RU,1630273139
525,Okha,53.5739,142.9478,55.96,97,100,3.15,RU,1630272843
526,Mutoko,-17.397,32.2268,50.99,93,0,4.09,ZW,1630272855
527,Kenai,60.5544,-151.2583,64.02,60,1,6.91,US,1630272919
528,Valparaíso,-33.0393,-71.6273,54.52,93,90,10.36,CL,1630272692
529,Half Moon Bay,37.4636,-122.4286,100.74,63,1,0.0,US,1630272633
530,Santa Isabel Rio Negro,-0.4139,-65.0192,77.05,93,57,2.44,BR,1630273140
531,Borisoglebskiy,57.2586,39.1508,55.04,68,100,4.9,RU,1630273140
532,Nantucket,41.2835,-70.0995,73.74,76,90,8.05,US,1630272630
533,Rabo de Peixe,37.8,-25.5833,71.11,94,40,14.97,PT,1630272989
534,Alofi,-19.0595,-169.9187,78.69,65,18,11.5,NU,1630272818
535,Orlik,52.5178,99.825,45.05,85,84,1.92,RU,1630273140
536,Nouadhibou,20.931,-17.0347,76.98,69,0,11.5,MR,1630272821
537,Vladislavovka,45.1667,35.3667,77.43,66,2,2.17,UA,1630273141
538,Zvenyhorodka,49.0787,30.9675,68.86,65,18,8.1,UA,1630273141
539,Tabou,4.423,-7.3528,76.24,87,100,12.71,CI,1630273142
540,Lokosovo,61.1333,74.8167,42.64,97,79,5.28,RU,1630273142
541,Shambu,9.5667,37.1,51.49,88,82,1.12,ET,1630273143
542,High Prairie,55.4334,-116.4858,65.5,39,98,5.55,CA,1630273143
543,Morro Bay,35.3658,-120.8499,105.75,55,18,8.99,US,1630272971
544,Rørvik,64.8621,11.2373,54.81,80,93,4.07,NO,1630273144
545,Fort Frances,48.5999,-93.4003,68.22,71,90,1.01,CA,1630273044
546,Luziânia,-16.2525,-47.9503,80.29,35,85,6.91,BR,1630273144
547,Gatesville,31.4352,-97.7439,93.15,57,40,8.05,US,1630273144
548,Tubualá,9.5167,-79.0333,86.11,82,100,7.07,PA,1630273145
549,Tommot,58.9564,126.2925,46.94,77,4,1.97,RU,1630273145
550,Atar,20.5169,-13.0499,100.89,17,10,10.36,MR,1630272781
551,Carora,10.1755,-70.0827,86.29,50,88,15.21,VE,1630273145
552,Shimoda,34.6667,138.95,83.16,84,0,4.5,JP,1630273146
553,Los Algarrobos,8.5,-82.4333,83.46,88,75,12.66,PA,1630273146
554,Wattegama,6.7989,81.4808,76.12,71,100,4.97,LK,1630273146
555,Borger,52.9233,6.7931,62.8,91,56,8.9,NL,1630273147
556,Nara,34.6851,135.8049,79.92,75,0,2.68,JP,1630272798
557,Guánica,17.9716,-66.908,87.21,75,74,4.0,PR,1630273147
558,Oktyabr'skiy,54.4815,53.471,48.11,55,6,2.44,RU,1630273147
559,Olinda,-8.0089,-34.8553,76.73,78,40,8.05,BR,1630273148
560,Qui Nhon,13.7667,109.2333,77.43,87,100,5.14,VN,1630272867
561,Dongsheng,39.8161,109.9776,61.9,66,100,3.83,CN,1630273148
562,Chegdomyn,51.1167,133.0167,51.08,99,100,0.76,RU,1630273149
563,Masuguru,-11.3667,38.4167,72.55,57,41,3.6,TZ,1630273149
564,La Tuque,47.4334,-72.7824,64.65,82,93,8.05,CA,1630273149
565,Chudovo,59.1167,31.6833,53.83,98,88,4.12,RU,1630273150
566,Rio Claro,-22.4114,-47.5614,73.22,75,99,12.55,BR,1630273150
567,Itapirapuã,-15.8233,-50.6133,86.45,29,47,6.02,BR,1630273150
568,Nizhnyaya Tura,58.6293,59.8118,43.2,82,6,4.72,RU,1630273151
569,Plérin,48.5425,-2.7798,61.45,82,40,7.0,FR,1630273151
570,Srednekolymsk,67.45,153.6833,52.97,53,100,5.3,RU,1630273151
571,Eenhana,-17.4667,16.3333,62.35,21,0,6.6,NA,1630273152
572,Longyan,25.1072,117.0225,72.46,97,11,0.38,CN,1630273152
573,Touros,-5.1989,-35.4608,79.7,81,82,13.38,BR,1630273152
574,Latung,5.5,120.8833,82.71,75,56,6.24,PH,1630273152
575,Kokopo,-4.352,152.2633,81.63,71,6,5.82,PG,1630273153
576,Gisborne,-38.6533,178.0042,51.94,95,100,10.78,NZ,1630273153
577,Am Timan,11.0297,20.2827,68.65,94,100,7.78,TD,1630272808
578,Kimberley,-28.7323,24.7623,40.69,42,95,6.91,ZA,1630273153
579,Lautaro,-38.5167,-72.45,57.18,88,92,4.38,CL,1630273154
580,Kalabo,-14.97,22.6814,66.09,21,4,7.14,ZM,1630273154
581,Leer,8.3018,30.1418,69.53,96,100,2.21,SS,1630273155
582,Tomatlán,19.9333,-105.25,82.99,76,100,4.29,MX,1630272829
583,Balkhash,46.844,74.9804,70.65,53,79,11.59,KZ,1630273155
584,Auki,-8.7676,160.7034,81.72,78,96,5.86,SB,1630273155
585,Tétouan,35.5711,-5.3724,70.68,73,0,20.71,MA,1630273156
586,Cabedelo,-6.9811,-34.8339,77.67,86,11,13.58,BR,1630272953
587,Zermatt,46.0213,7.7491,52.03,91,78,4.12,CH,1630273156
588,Coahuayana Viejo,18.7333,-103.6833,83.68,78,86,4.83,MX,1630273157
589,Wanaka,-44.7,169.15,42.12,96,91,1.01,NZ,1630273157
590,Bowen,-20.0167,148.2333,66.42,85,42,6.67,AU,1630273157
